time(millisecond),datetime(utc),latitude,longitude,height_above_takeoff(feet),height_above_ground_at_drone_location(feet),ground_elevation_at_drone_location(feet),altitude_above_seaLevel(feet),height_sonar(feet),speed(mph),distance(feet),satellites,gpslevel,voltage(v),max_altitude(feet),max_ascent(feet),max_speed(mph),max_distance(feet), xSpeed(mph), ySpeed(mph), zSpeed(mph), compass_heading(degrees), pitch(degrees), roll(degrees),isPhoto,isVideo,rc_elevator,rc_aileron,rc_throttle,rc_rudder,gimbal_heading(degrees),gimbal_pitch(degrees),battery_percent,voltageCell1,voltageCell2,voltageCell3,voltageCell4,voltageCell5,voltageCell6,current(A),battery_temperature(f),altitude(feet),ascent(feet),flycStateRaw,flycState,message
0,2021-10-16 19:01:37,29.4072021493363,-82.1690824754831,0,0,58.927193814804,58.927193814804,0,0,0,13,4,0,58.927193814804,0,0,0,0,0,0,92.3, -1.6, -3.4,0,0,364,364,364,1684,0,0,99,,,,,,,0,32,58.927193814804,0,41,Motors_Started,
100,2021-10-16 19:01:37,29.407202150556,-82.1690824582332,0,0,58.927193814804,58.927193814804,0,0,0.0055007219608,13,4,0,58.927193814804,0,0,0.0055007219608,0,0,0,92.2, -1.6, -3.4,0,0,364,364,364,1684,0,0,99,,,,,,,0,32,58.927193814804,0,41,Motors_Started,
200,2021-10-16 19:01:37,29.4072021816316,-82.1690824660021,0,0,58.927193814804,58.927193814804,0,0,0.0121621394968,13,4,0,58.927193814804,0,0,0.0121621394968,0,0,0,92.1, -1.6, -3.4,0,0,364,364,364,1684,0,0,99,,,,,,,0,32,58.927193814804,0,41,Motors_Started,
300,2021-10-16 19:01:38,29.4072022113002,-82.1690824579437,0,0,58.927193814804,58.927193814804,0,0,0.0232846792228,13,4,0,58.927193814804,0,0,0.0232846792228,0,0,0,92.1, -1.6, -3.4,0,0,364,364,364,1684,0,0,99,,,,,,,0,32,58.927193814804,0,41,Motors_Started,
400,2021-10-16 19:01:38,29.407202236375,-82.1690824601501,0,0,58.927193814804,58.927193814804,0,0,0.032127789742,13,4,0,58.927193814804,0,0,0.032127789742,0,0,0,92, -1.6, -3.4,0,0,364,364,364,1684,0,0,99,,,,,,,0,32,58.927193814804,0,41,Motors_Started,Setting new Return-To-Home altitude to 50m (164 ft). Data Recorder File Index is 147. Setting new Maximum Flight Altitude to 500m (1640 ft)
500,2021-10-16 19:01:38,29.4072022568739,-82.1690824456332,0,0,58.927193814804,58.927193814804,0,0,0.04036581494,13,4,0,58.927193814804,0,0,0.04036581494,0,0,0,91.9, -1.6, -3.4,0,0,364,364,364,1684,0,0,99,,,,,,,0,32,58.927193814804,0,41,Motors_Started,
600,2021-10-16 19:01:38,29.4072022648565,-82.1690824138286,0,0,58.927193814804,58.927193814804,0,0,0.046480316448,13,4,0,58.927193814804,0,0,0.046480316448,0,0,0,91.9, -1.6, -3.4,0,0,364,364,364,1684,0,0,99,,,,,,,0,32,58.927193814804,0,41,Motors_Started,
700,2021-10-16 19:01:38,29.4072022802551,-82.1690823778523,0,0,58.927193814804,58.927193814804,0,0,0.05696030366,13,4,0,58.927193814804,0,0,0.05696030366,0,0,0,91.9, -1.6, -3.4,0,0,364,364,364,1684,0,0,99,,,,,,,0,32,58.927193814804,0,41,Motors_Started,
800,2021-10-16 19:01:38,29.4072022424442,-82.1690823601356,0,0,58.927193814804,58.927193814804,0,0,0.049980972728,13,4,0,58.927193814804,0,0,0.05696030366,0,0,0,91.8, -1.6, -3.4,0,0,636,433,493,1605,0,0,99,,,,,,,0,32,58.927193814804,0,41,Motors_Started,
900,2021-10-16 19:01:38,29.4072022187373,-82.1690823370781,0,0,58.927193814804,58.927193814804,0,0,0.050757547556,13,4,0,58.927193814804,0,0,0.05696030366,0,0,0,91.9, -1.6, -3.4,0,0,1024,765,1024,965,0,0,99,,,,,,,0,32,58.927193814804,0,41,Motors_Started,
1000,2021-10-16 19:01:38,29.407202180096,-82.1690823038045,0,0,58.927193814804,58.927193814804,0,0,0.055708335116,13,4,0,58.927193814804,0,0,0.05696030366,0,0,0,91.9, -1.6, -3.4,0,0,1024,961,1024,1024,0,0,99,,,,,,,0,32,58.927193814804,0,41,Motors_Started,
1100,2021-10-16 19:01:38,29.4072021608999,-82.1690822733958,0,0,58.927193814804,58.927193814804,0,0,0.064369752716,13,4,0,58.927193814804,0,0,0.064369752716,0,0,0,91.8, -1.6, -3.3,0,0,1024,1024,1024,1024,0,0,99,,,,,,,0,32,58.927193814804,0,41,Motors_Started,
1200,2021-10-16 19:01:38,29.4072021280688,-82.1690822579034,0,0,58.927193814804,58.927193814804,0,0,0.069589241072,13,4,0,58.927193814804,0,0,0.069589241072,0,0,0,91.8, -1.6, -3.3,0,0,1024,1024,1024,1024,0,0,99,,,,,,,0,32,58.927193814804,0,41,Motors_Started,
1300,2021-10-16 19:01:39,29.4072021081318,-82.1690822410755,0,0,58.927193814804,58.927193814804,0,0,0.07600557986,13,4,0,58.927193814804,0,0,0.07600557986,0,0,0,91.9, -1.6, -3.3,0,0,1024,1024,1024,1024,0,0,99,,,,,,,0,32,58.927193814804,0,41,Motors_Started,
1400,2021-10-16 19:01:39,29.4072020847555,-82.1690822010041,0,0,58.927193814804,58.927193814804,0,0,0.090366144624,13,4,0,58.927193814804,0,0,0.090366144624,0,0,0,91.8, -1.6, -3.3,0,0,1024,1024,1024,1024,0,0,99,,,,,,,0,32,58.927193814804,0,41,Motors_Started,
1500,2021-10-16 19:01:39,29.4072020700816,-82.1690821538116,0,0,58.927193814804,58.927193814804,0,0,0.106250331484,13,4,0,58.927193814804,0,0,0.106250331484,0,0,0,91.8, -1.6, -3.3,0,0,1024,1024,1024,1024,0,0,99,,,,,,,0,32,58.927193814804,0,41,Motors_Started,
1600,2021-10-16 19:01:39,29.4072020562561,-82.1690821234314,0,0,58.927193814804,58.927193814804,0,0,0.11693569928,13,4,0,58.927193814804,0,0,0.11693569928,0,0,0,91.8, -1.6, -3.3,0,0,1024,1024,1024,1024,0,0,99,,,,,,,0,32,58.927193814804,0,41,Motors_Started,
1700,2021-10-16 19:01:39,29.4072020437773,-82.1690820988364,0,0,58.927193814804,58.927193814804,0,0,0.125755581452,13,4,0,58.927193814804,0,0,0.125755581452,0,0,0,91.8, -1.6, -3.3,0,0,1024,1024,1024,1024,0,0,99,,,,,,,0,32,58.927193814804,0,41,Motors_Started,
1800,2021-10-16 19:01:39,29.4072020002474,-82.1690821078635,0,0,58.927193814804,58.927193814804,0,0,0.128884846644,13,4,0,58.927193814804,0,0,0.128884846644,0,0,0,91.8, -1.6, -3.3,0,0,1024,1024,1024,1024,0,0,99,,,,,,,0,32,58.927193814804,0,41,Motors_Started,
1900,2021-10-16 19:01:39,29.4072019681458,-82.1690820997117,0,0,58.927193814804,58.927193814804,0,0,0.136509518804,13,4,0,58.927193814804,0,0,0.136509518804,0,0,0,91.8, -1.6, -3.3,0,0,1024,1024,1024,1024,0,0,99,,,,,,,0,32,58.927193814804,0,41,Motors_Started,
2000,2021-10-16 19:01:39,29.4072019451278,-82.1690821193595,0,0,58.927193814804,58.927193814804,0,0,0.13551017494,13,4,0,58.927193814804,0,0,0.136509518804,0,0,0,91.8, -1.6, -3.3,0,0,1024,1024,1024,1024,0,0,99,,,,,,,0,32,58.927193814804,0,10,Assisted_Takeoff,
2100,2021-10-16 19:01:39,29.4072019319846,-82.1690821183395,0,0,58.927193814804,58.927193814804,0,0,0.138470476872,13,4,0,58.927193814804,0,0,0.138470476872,0,0,0,91.8, -1.6, -3.3,0,0,1024,1024,1024,1024,0,0,99,,,,,,,0,32,58.927193814804,0,10,Assisted_Takeoff,
2200,2021-10-16 19:01:39,29.4072018923874,-82.1690821398663,0,0,58.927193814804,58.927193814804,0,0,0.142012471736,13,4,0,58.927193814804,0,0,0.142012471736,0,0,0,91.8, -1.6, -3.3,0,0,1024,1024,1024,1024,0,0,99,,,,,,,0,32,58.927193814804,0,10,Assisted_Takeoff,
2300,2021-10-16 19:01:40,29.4072018599618,-82.1690821458602,0,0,58.927193814804,58.927193814804,0,0,0.148737537568,13,4,0,58.927193814804,0,0,0.148737537568,0,0,0,91.8, -1.5, -3.3,0,0,1024,1024,1024,1024,0,0,99,,,,,,,0,32,58.927193814804,0,10,Assisted_Takeoff,
2400,2021-10-16 19:01:40,29.4072018347795,-82.169082133177,0,0,58.927193814804,58.927193814804,0,0,0.158140096924,13,4,0,58.927193814804,0,0,0.158140096924,0,0,0,91.8, -1.6, -3.3,0,0,1024,1024,1024,1024,0,0,99,,,,,,,0,32,58.927193814804,0,10,Assisted_Takeoff,
2500,2021-10-16 19:01:40,29.4072018294154,-82.1690821084707,0,0,58.927193814804,58.927193814804,0,0,0.165020346488,13,4,0,58.927193814804,0,0,0.165020346488,0,0,0,91.8, -1.6, -3.3,0,0,1024,1024,1024,1024,0,0,99,,,,,,,0,32,58.927193814804,0,10,Assisted_Takeoff,
2600,2021-10-16 19:01:40,29.4072017930148,-82.1690820918979,0,0,58.927193814804,58.927193814804,0,0,0.178227695992,13,4,0,58.927193814804,0,0,0.178227695992,0,0,0,91.9, -1.6, -3.3,0,0,1024,1024,1024,1024,0,0,99,,,,,,,0,32,58.927193814804,0,10,Assisted_Takeoff,
2700,2021-10-16 19:01:40,29.4072017654469,-82.1690820724575,0,0,58.927193814804,58.927193814804,0,0,0.189805780352,13,4,0,58.927193814804,0,0,0.189805780352,0,0,0,91.8, -1.7, -3.3,0,0,1024,1024,1024,1024,0,0,99,,,,,,,0,32,58.927193814804,0,10,Assisted_Takeoff,
2800,2021-10-16 19:01:40,29.4072017445768,-82.1690820699338,0,0,58.927193814804,58.927193814804,0,0,0.19601870706,13,4,0,58.927193814804,0,0,0.19601870706,0,0,0,91.8, -1.7, -3.3,0,0,1024,1024,1024,1024,0,0,99,,,,,,,0,32,58.927193814804,0,10,Assisted_Takeoff,
2900,2021-10-16 19:01:40,29.4072017351627,-82.1690820625223,0,0,58.927193814804,58.927193814804,0,0,0.200156174384,13,4,0,58.927193814804,0,0,0.200156174384,0,0,0,91.8, -1.7, -3.3,0,0,1024,1024,1024,1024,0,0,99,,,,,,,0,32,58.927193814804,0,10,Assisted_Takeoff,
3000,2021-10-16 19:01:40,29.4072017349624,-82.1690820795042,0,0,58.927193814804,58.927193814804,0,0,0.196714901308,13,4,0,58.927193814804,0,0,0.200156174384,0,0,0,91.8, -1.7, -3.3,0,0,1024,1024,1024,1024,0,0,99,,,,,,,0,32,58.927193814804,0,10,Assisted_Takeoff,
3100,2021-10-16 19:01:40,29.40720172832,-82.1690820873985,0,0,58.927193814804,58.927193814804,0,0,0.19700295906,13,4,0,58.927193814804,0,0,0.200156174384,0,0,0,91.9, -1.6, -3.3,0,0,1024,1024,1024,1024,0,0,99,,,,,,,0,32,58.927193814804,0,10,Assisted_Takeoff,
3200,2021-10-16 19:01:41,29.4072017288525,-82.1690821099747,0,0,58.927193814804,58.927193814804,0,0,0.192436357864,13,4,0,58.927193814804,0,0,0.200156174384,0,0,0,91.8, -1.6, -3.3,0,0,1024,1024,1040,1024,0,0,99,,,,,,,0,32,58.927193814804,0,10,Assisted_Takeoff,
3300,2021-10-16 19:01:41,29.4072017247358,-82.1690821203558,0,0,58.927193814804,58.927193814804,0,0,0.191674546816,13,4,0,58.927193814804,0,0,0.200156174384,0,0,0,91.8, -1.6, -3.3,0,0,1024,1024,1047,1024,0,0,99,,,,,,,0,32,58.927193814804,0,10,Assisted_Takeoff,
3400,2021-10-16 19:01:41,29.4072016866758,-82.1690821426404,0,0,58.927193814804,58.927193814804,0,0,0.199212276716,13,4,0,58.927193814804,0,0,0.200156174384,0,0,0,91.8, -1.6, -3.3,0,0,1024,1024,1066,1024,0,0,99,,,,,,,0,32,58.927193814804,0,10,Assisted_Takeoff,
3500,2021-10-16 19:01:41,29.4072016507735,-82.1690821525526,0,0,58.927193814804,58.927193814804,0,0,0.208860570988,13,4,0,58.927193814804,0,0,0.208860570988,0,0,0,91.9, -1.6, -3.3,0,0,1024,1024,1094,1024,0,0,99,,,,,,,0,32,58.927193814804,0,10,Assisted_Takeoff,
3600,2021-10-16 19:01:41,29.4072015824668,-82.1690821665772,0,0,58.927193814804,58.927193814804,0,0,0.22894357688,13,4,0,58.927193814804,0,0,0.22894357688,0,0,0,91.8, -1.6, -3.3,0,0,1024,1024,1088,1024,0,0,99,,,,,,,0,32,58.927193814804,0,10,Assisted_Takeoff,
3700,2021-10-16 19:01:41,29.407201527953,-82.1690821681934,0,0,58.927193814804,58.927193814804,0,0,0.246854666692,13,4,0,58.927193814804,0,0,0.246854666692,0,0,0,91.8, -1.7, -3.2,0,0,1024,1024,1094,1024,0,0,99,,,,,,,0,32,58.927193814804,0,10,Assisted_Takeoff,
3800,2021-10-16 19:01:41,29.4072014789173,-82.1690821685234,0,0,58.927193814804,58.927193814804,0,0,0.26334154386,13,4,0,58.927193814804,0,0,0.26334154386,0,0,0,91.9, -1.7, -3.3,0,0,1024,1024,1110,1024,0,0,99,,,,,,,0,32,58.927193814804,0,10,Assisted_Takeoff,
3900,2021-10-16 19:01:41,29.4072014393575,-82.1690821654171,0,0,58.927193814804,58.927193814804,0,0,0.277149287084,13,4,0,58.927193814804,0,0,0.277149287084,0,0,0,91.8, -1.7, -3.3,0,0,1024,1024,1124,1024,0,0,99,,,,,,,0,32,58.927193814804,0,10,Assisted_Takeoff,
4000,2021-10-16 19:01:41,29.4072013808736,-82.1690821659214,0,0,58.927193814804,58.927193814804,0,0,0.297136164364,13,4,0,58.927193814804,0,0,0.297136164364,0,0,0,91.8, -1.5, -3.2,0,0,1024,1024,1128,1024,0,0,99,,,,,,,0,32,58.927193814804,0,10,Assisted_Takeoff,
4100,2021-10-16 19:01:41,29.4072013262718,-82.1690821739945,0,0,58.927193814804,58.927193814804,0,0,0.315212936596,13,4,0,58.927193814804,0,0,0.315212936596,0,0,0,91.8, -1.2, -3.2,0,0,1024,1024,1106,1024,0,0,99,,,,,,,0,32,58.927193814804,0,10,Assisted_Takeoff,
4200,2021-10-16 19:01:42,29.4072012986925,-82.1690822260441,0,0,58.927193814804,58.927193814804,0,0,0.32032317298,13,4,0,58.927193814804,0,0,0.32032317298,0,0,0,91.7, -1, -3.1,0,0,1024,1024,1106,1024,0,0,99,,,,,,,0,32,58.927193814804,0,10,Assisted_Takeoff,
4300,2021-10-16 19:01:42,29.4072012744873,-82.1690822644818,0,0,58.927193814804,58.927193814804,0,0,0.326157490752,13,4,0,58.927193814804,0,0,0.326157490752,0,0,0,91.7, -0.8, -3.1,0,0,1024,1024,1106,1024,0,0,99,,,,,,,0,32,58.927193814804,0,10,Assisted_Takeoff,
4400,2021-10-16 19:01:42,29.407201280379,-82.1690823344383,0,0,58.927193814804,58.927193814804,0,0,0.320192267464,13,4,0,58.927193814804,0,0,0.326157490752,0,0,0,91.7, -0.8, -3,0,0,1024,1024,1109,1024,0,0,99,,,,,,,0,32,58.927193814804,0,10,Assisted_Takeoff,
4500,2021-10-16 19:01:42,29.4072012652019,-82.1690823733434,0,0,58.927193814804,58.927193814804,0,0,0.324205390952,13,4,0,58.927193814804,0,0,0.326157490752,0,0,0,91.6, -0.8, -3,0,0,1024,1024,1112,1024,0,0,99,,,,,,,0,32,58.927193814804,0,10,Assisted_Takeoff,
4600,2021-10-16 19:01:42,29.4072012400278,-82.1690824031666,0,0,58.927193814804,58.927193814804,0,0,0.33255578492,13,4,0,58.927193814804,0,0,0.33255578492,0,0,0,91.6, -0.8, -2.8,0,0,1024,1024,1111,1024,0,0,99,,,,,,,0,32,58.927193814804,0,10,Assisted_Takeoff,
4700,2021-10-16 19:01:42,29.4072011955078,-82.1690824274222,0.328084,0.328084,58.927193814804,59.255277814804,0,0,0.34833990616,13,4,0,59.255277814804,0.328084,0,0.34833990616,0,0,-0.223694,91.5, -0.7, -2.4,0,0,1024,1024,1123,1024,0,0,99,,,,,,,0,32,59.255277814804,0.328084,10,Assisted_Takeoff,
4800,2021-10-16 19:01:42,29.4072011647693,-82.1690824846597,0.328084,0.328084,58.927193814804,59.255277814804,0,0,0.35922901412,13,4,0,59.255277814804,0.328084,0,0.35922901412,0,0,-0.223694,91.4, -0.3, -1.7,0,0,1024,1024,1127,1024,0,0,99,,,,,,,0,32,59.255277814804,0.328084,10,Assisted_Takeoff,
4900,2021-10-16 19:01:42,29.4072011223793,-82.1690825422344,0.328084,0.29527559999999,58.960002214804,59.255277814804,0,0,0.37528544508,13,4,0,59.255277814804,0.328084,0,0.37528544508,0,0,-0.447388,91.3, -0.2, -0.8,0,0,1024,1024,1126,1024,0,0,99,,,,,,,0,32,59.255277814804,0.328084,6,P-GPS,
5000,2021-10-16 19:01:42,29.40720106817,-82.1690826372941,0.328084,0.29527559999999,58.960002214804,59.255277814804,0,0,0.39780185,13,4,0,59.255277814804,0.328084,0,0.39780185,0,0,-0.671082,91.3, -0.2, -0.4,0,0,1024,1024,1142,1024,0,0,99,,,,,,,0,32,59.255277814804,0.328084,6,P-GPS,
5100,2021-10-16 19:01:42,29.4072009931964,-82.1690827218296,0.656168,0.62335959999999,58.960002214804,59.583361814804,0,0,0.42902232344,13,4,0,59.583361814804,0.656168,0,0.42902232344,0,0,-0.671082,91.3, -0.1, -0.2,0,0,1024,1024,1151,1024,0,0,99,,,,,,,0,32,59.583361814804,0.656168,6,P-GPS,
5200,2021-10-16 19:01:42,29.4072008749193,-82.1690828567976,0.656168,0.62335959999999,58.960002214804,59.583361814804,0,0,0.48050526472,13,4,0,59.583361814804,0.656168,0,0.48050526472,0,0,-0.671082,91.2, -0.1, -0.4,0,0,1024,1024,1162,1024,0,0,99,,,,,,,0,32,59.583361814804,0.656168,6,P-GPS,
5300,2021-10-16 19:01:43,29.4072007333782,-82.1690829791746,0.984252,0.95144359999999,58.960002214804,59.911445814804,0,0.223694,0.54084975484,13,4,0,59.911445814804,0.984252,0.223694,0.54084975484,-0.223694,0,-0.894776,91.2, -0.2, -0.6,0,0,1024,1024,1169,1024,0,0,99,,,,,,,0,32,59.911445814804,0.984252,6,P-GPS,
5400,2021-10-16 19:01:43,29.4072005608397,-82.169083147979,0.984252,0.95144359999999,58.960002214804,59.911445814804,0,0.223694,0.61771983604,12,4,0,59.911445814804,0.984252,0.223694,0.61771983604,-0.223694,0,-0.894776,91.3, -0.2, -0.4,0,0,1024,1024,1180,1024,0,0,99,,,,,,,0,32,59.911445814804,0.984252,6,P-GPS,
5600,2021-10-16 19:01:43,29.4072001547025,-82.1690834216723,1.312336,1.2795276,58.960002214804,60.239529814804,0,0.223694,0.78743112756,12,4,0,60.239529814804,1.312336,0.223694,0.78743112756,-0.223694,0,-0.894776,91.3, -0.8, -1.2,0,0,1024,1024,1162,1024,0,0,99,,,,,,,0,32,60.239529814804,1.312336,6,P-GPS,
5700,2021-10-16 19:01:43,29.4071999398146,-82.1690835293249,1.312336,1.2467192,58.992810614804,60.239529814804,0,0.223694,0.87295934552,12,4,0,60.239529814804,1.312336,0.223694,0.87295934552,-0.223694,0,-0.894776,91.3, -0.8, -1.5,0,0,1024,1024,1209,1024,0,0,99,,,,,,,0,32,60.239529814804,1.312336,6,P-GPS,
5800,2021-10-16 19:01:43,29.4071997241858,-82.1690836221152,1.64042,1.5748032,58.992810614804,60.567613814804,0,0.223694,0.95693244532,12,4,0,60.567613814804,1.64042,0.223694,0.95693244532,-0.223694,0,-0.894776,91.3, -0.6, -1.5,0,0,1024,1024,1211,1024,0,0,99,,,,,,,0,32,60.567613814804,1.64042,6,P-GPS,
5900,2021-10-16 19:01:43,29.40719952313,-82.1690837093993,1.64042,1.5748032,58.992810614804,60.567613814804,0,0.223694,1.03532483628,12,4,0,60.567613814804,1.64042,0.223694,1.03532483628,-0.223694,0,-0.894776,91.3, -0.6, -1.6,0,0,1024,1024,1195,1024,0,0,99,,,,,,,0,32,60.567613814804,1.64042,6,P-GPS,
6000,2021-10-16 19:01:43,29.4071993366276,-82.1690838253457,1.968504,1.9028872,58.992810614804,60.895697814804,0,0.223694,1.11229006184,12,4,0,60.895697814804,1.968504,0.223694,1.11229006184,-0.223694,0,-1.342164,91.3, -0.6, -1.6,0,0,1024,1024,1191,1024,0,0,99,,,,,,,0,32,60.895697814804,1.968504,6,P-GPS,
6100,2021-10-16 19:01:43,29.4071991527811,-82.1690839281434,1.968504,1.9028872,58.992810614804,60.895697814804,0,0.223694,1.18678809572,12,4,0,60.895697814804,1.968504,0.223694,1.18678809572,-0.223694,0,-1.342164,91.3, -0.7, -1.6,0,0,1024,1024,1187,1024,0,0,99,,,,,,,0,32,60.895697814804,1.968504,6,P-GPS,
6200,2021-10-16 19:01:43,29.4071989607355,-82.1690839877228,2.296588,2.2309712,58.992810614804,61.223781814804,0,0.223694,1.25874019776,11,4,0,61.223781814804,2.296588,0.223694,1.25874019776,-0.223694,0,-1.342164,91.3, -0.6, -1.6,0,0,1024,1024,1187,1024,0,0,99,,,,,,,0,32,61.223781814804,2.296588,6,P-GPS,
6300,2021-10-16 19:01:44,29.4071987703476,-82.1690840421396,2.296588,2.2309712,58.992810614804,61.223781814804,0,0.223694,1.32958665672,11,4,0,61.223781814804,2.296588,0.223694,1.32958665672,-0.223694,0,-1.11847,91.3, -0.6, -1.6,0,0,1024,1024,1187,1024,0,0,99,,,,,,,0,32,61.223781814804,2.296588,6,P-GPS,
6400,2021-10-16 19:01:44,29.4071986519792,-82.1690840637473,2.624672,2.5590552,58.992810614804,61.551865814804,0,0.223694,1.37223757672,11,4,0,61.551865814804,2.624672,0.223694,1.37223757672,-0.223694,0,-1.11847,91.3, -0.6, -1.9,0,0,1024,1024,1178,1024,0,0,99,,,,,,,0,32,61.551865814804,2.624672,6,P-GPS,
6500,2021-10-16 19:01:44,29.407198520541,-82.1690840970254,2.952756,2.8871392,58.992810614804,61.879949814804,0,0,1.42074151528,11,4,0,61.879949814804,2.952756,0.223694,1.42074151528,0,0,-1.342164,91.3, -0.4, -2.3,0,0,1024,1024,1171,1024,0,0,99,,,,,,,0,32,61.879949814804,2.952756,6,P-GPS,
6600,2021-10-16 19:01:44,29.4071984048335,-82.1690841474205,2.952756,2.8871392,58.992810614804,61.879949814804,0,0,1.46589243536,12,4,0,61.879949814804,2.952756,0.223694,1.46589243536,0,0,-1.11847,91.3, -0.3, -2.1,0,0,1024,1024,1167,1024,0,0,99,,,,,,,0,32,61.879949814804,2.952756,6,P-GPS,
6700,2021-10-16 19:01:44,29.4071982779289,-82.1690842098611,3.28084,3.2152232,58.992810614804,62.208033814804,0,0,1.516240206,12,4,0,62.208033814804,3.28084,0.223694,1.516240206,0,0,-1.11847,91.3, -0.5, -2,0,0,1024,1024,1169,1024,0,0,99,,,,,,,0,32,62.208033814804,3.28084,6,P-GPS,
6800,2021-10-16 19:01:44,29.4071981768139,-82.1690843028656,3.28084,3.2152232,58.992810614804,62.208033814804,0,0,1.5614173728,12,4,0,62.208033814804,3.28084,0.223694,1.5614173728,0,0,-1.11847,91.3, -0.7, -1.9,0,0,1024,1024,1173,1024,0,0,99,,,,,,,0,32,62.208033814804,3.28084,6,P-GPS,
6900,2021-10-16 19:01:44,29.4071980676089,-82.1690843826967,3.608924,3.5433072,58.992810614804,62.536117814804,0,0,1.60786422468,12,4,0,62.536117814804,3.608924,0.223694,1.60786422468,0,0,-0.894776,91.3, -0.8, -1.9,0,0,1024,1024,1175,1024,0,0,99,,,,,,,0,32,62.536117814804,3.608924,6,P-GPS,
7000,2021-10-16 19:01:44,29.4071979603856,-82.1690844105313,3.608924,3.5433072,58.992810614804,62.536117814804,0,0,1.64744755928,13,4,0,62.536117814804,3.608924,0.223694,1.64744755928,0,0,-0.894776,91.4, -0.9, -2.2,0,0,1024,1024,1178,1024,0,0,99,,,,,,,0,32,62.536117814804,3.608924,6,P-GPS,
7100,2021-10-16 19:01:44,29.4071978484854,-82.1690844334646,3.608924,3.5433072,58.992810614804,62.536117814804,0,0,1.68806435848,13,4,0,62.536117814804,3.608924,0.223694,1.68806435848,0,0,-0.894776,91.4, -1, -2.4,0,0,1024,1024,1170,1024,0,0,99,,,,,,,0,32,62.536117814804,3.608924,6,P-GPS,
7200,2021-10-16 19:01:44,29.4071977352711,-82.1690844424285,3.937008,3.8713912,58.992810614804,62.864201814804,0,0,1.72755582956,13,4,0,62.864201814804,3.937008,0.223694,1.72755582956,0,0,-0.894776,91.3, -0.9, -2.2,0,0,1024,1024,1169,1024,0,0,99,,,,,,,0,32,62.864201814804,3.937008,6,P-GPS,
7300,2021-10-16 19:01:45,29.4071976347147,-82.1690844564313,3.937008,3.8713912,58.992810614804,62.864201814804,0,0,1.76339244488,13,4,0,62.864201814804,3.937008,0.223694,1.76339244488,0,0,-1.11847,91.3, -0.8, -2.1,0,0,1024,1024,1169,1024,0,0,99,,,,,,,0,32,62.864201814804,3.937008,6,P-GPS,
7400,2021-10-16 19:01:45,29.4071975570184,-82.1690844612625,4.265092,4.1994752,58.992810614804,63.192285814804,0,0,1.79043968984,13,4,0,63.192285814804,4.265092,0.223694,1.79043968984,0,0,-0.894776,91.4, -0.8, -2.2,0,0,1024,1024,1167,1024,0,0,99,,,,,,,0,32,63.192285814804,4.265092,6,P-GPS,
7600,2021-10-16 19:01:45,29.4071974331003,-82.1690844435622,4.593176,4.5275592,58.992810614804,63.520369814804,0,0,1.8308891662,13,4,0,63.520369814804,4.593176,0.223694,1.8308891662,0,0,-0.894776,91.3, -0.8, -2,0,0,1024,1024,1167,1024,0,0,99,,,,,,,0,32,63.520369814804,4.593176,6,P-GPS,
7700,2021-10-16 19:01:45,29.407197373242,-82.1690844231229,4.593176,4.5275592,58.992810614804,63.520369814804,0,0,1.849245466,13,4,0,63.520369814804,4.593176,0.223694,1.849245466,0,0,-0.894776,91.3, -0.7, -2,0,0,1024,1024,1166,1024,0,0,99,,,,,,,0,32,63.520369814804,4.593176,6,P-GPS,
7800,2021-10-16 19:01:45,29.4071973008739,-82.1690843790024,4.92126,4.8556432,58.992810614804,63.848453814804,0,0,1.86956042728,13,4,0,63.848453814804,4.92126,0.223694,1.86956042728,0,0,-0.894776,91.3, -0.4, -2.2,0,0,1024,1024,1172,1024,0,0,99,,,,,,,0,32,63.848453814804,4.92126,6,P-GPS,
7900,2021-10-16 19:01:45,29.4071972289862,-82.1690843442749,4.92126,4.8556432,58.992810614804,63.848453814804,0,0,1.89089901064,13,4,0,63.848453814804,4.92126,0.223694,1.89089901064,0,0,-0.894776,91.3, -0.4, -2.4,0,0,1024,1024,1158,1024,0,0,99,,,,,,,0,32,63.848453814804,4.92126,6,P-GPS,
8000,2021-10-16 19:01:45,29.407197210821,-82.1690843113928,5.249344,5.1837272,58.992810614804,64.176537814804,0,0,1.893946911,13,4,0,64.176537814804,5.249344,0.223694,1.893946911,0,0,-0.894776,91.3, -0.3, -2.5,0,0,1024,1024,1158,1024,0,0,99,,,,,,,0,32,64.176537814804,5.249344,6,P-GPS,
8100,2021-10-16 19:01:45,29.4071971907699,-82.169084285299,5.249344,5.1837272,58.992810614804,64.176537814804,0,0,1.89837932584,13,4,0,64.176537814804,5.249344,0.223694,1.89837932584,0,0,-1.11847,91.3, -0.1, -2.7,0,0,1024,1024,1083,1024,0,0,99,,,,,,,0,32,64.176537814804,5.249344,6,P-GPS,
8200,2021-10-16 19:01:46,29.4071971892587,-82.169084266997,5.577428,5.5118112,58.992810614804,64.504621814804,0,0,1.89714901084,13,4,0,64.504621814804,5.577428,0.223694,1.89837932584,0,0,-0.894776,91.4, -0.1, -2.6,0,0,1024,1024,1103,1024,0,0,99,,,,,,,0,32,64.504621814804,5.577428,6,P-GPS,
8300,2021-10-16 19:01:46,29.4071971751597,-82.169084254441,5.577428,5.5118112,58.992810614804,64.504621814804,0,0,1.90086620256,13,4,0,64.504621814804,5.577428,0.223694,1.90086620256,0,0,-0.671082,91.4, -0.1, -2.7,0,0,1024,1024,1103,1024,0,0,99,,,,,,,0,32,64.504621814804,5.577428,6,P-GPS,
8400,2021-10-16 19:01:46,29.4071971248749,-82.1690843038144,5.905512,5.8398952,58.992810614804,64.832705814804,0,0,1.92307420852,13,4,0,64.832705814804,5.905512,0.223694,1.92307420852,0,0,-0.447388,91.4, -0.2, -2.7,0,0,1024,1024,1110,1024,0,0,99,,,,,,,0,32,64.832705814804,5.905512,6,P-GPS,
8500,2021-10-16 19:01:46,29.4071970830076,-82.1690843469125,5.905512,5.8398952,58.992810614804,64.832705814804,0,0,1.94179468156,13,4,0,64.832705814804,5.905512,0.223694,1.94179468156,0,0,-0.447388,91.4, -0.4, -2.6,0,0,1024,1024,1110,1024,0,0,99,,,,,,,0,32,64.832705814804,5.905512,6,P-GPS,
8600,2021-10-16 19:01:46,29.4071971572517,-82.1690844089517,5.905512,5.8398952,58.992810614804,64.832705814804,0,0,1.92223759432,13,4,0,64.832705814804,5.905512,0.223694,1.94179468156,0,0,-0.447388,91.3, -0.5, -2.4,0,0,1024,1024,1110,1024,0,0,99,,,,,,,0,32,64.832705814804,5.905512,6,P-GPS,
8700,2021-10-16 19:01:46,29.4071972257978,-82.169084447974,5.905512,5.8398952,58.992810614804,64.832705814804,0,0,1.9026083286,13,4,0,64.832705814804,5.905512,0.223694,1.94179468156,0,0,-0.223694,91.3, -0.4, -2,0,0,1024,1024,1107,1024,0,0,99,,,,,,,0,32,64.832705814804,5.905512,6,P-GPS,
8800,2021-10-16 19:01:46,29.4071973684218,-82.1690844474156,5.905512,5.8398952,58.992810614804,64.832705814804,0,0,1.85349743464,13,4,0,64.832705814804,5.905512,0.223694,1.94179468156,0,0,-0.223694,91.3, -0.5, -1.8,0,0,1024,1024,1167,1024,0,0,99,,,,,,,0,32,64.832705814804,5.905512,6,P-GPS,
8900,2021-10-16 19:01:46,29.4071974707564,-82.1690844404227,5.905512,5.8398952,58.992810614804,64.832705814804,0,0,1.81764113428,13,4,0,64.832705814804,5.905512,0.223694,1.94179468156,0,0,-0.223694,91.4, -0.5, -2,0,0,1024,1024,1167,1024,0,0,99,,,,,,,0,32,64.832705814804,5.905512,6,P-GPS,
9000,2021-10-16 19:01:46,29.4071975767714,-82.1690844186564,5.905512,5.8398952,58.992810614804,64.832705814804,0,0,1.77895018816,13,4,0,64.832705814804,5.905512,0.223694,1.94179468156,0,0,-0.223694,91.4, -0.5, -2.1,0,0,1024,1024,1150,1024,0,0,99,,,,,,,0,32,64.832705814804,5.905512,6,P-GPS,
9100,2021-10-16 19:01:46,29.4071976498153,-82.1690844014155,6.233596,6.1679792,58.992810614804,65.160789814804,0,0,1.75206042352,13,4,0,65.160789814804,6.233596,0.223694,1.94179468156,0,0,-0.447388,91.4, -0.4, -1.7,0,0,1024,1024,1109,1024,0,0,99,,,,,,,0,32,65.160789814804,6.233596,6,P-GPS,
9200,2021-10-16 19:01:46,29.407197737507,-82.1690843328772,6.233596,6.1679792,58.992810614804,65.160789814804,0,0,1.71449808636,13,4,0,65.160789814804,6.233596,0.223694,1.94179468156,0,0,-0.447388,91.3, -0.2, -1.5,0,0,1024,1024,1079,1024,0,0,99,,,,,,,0,32,65.160789814804,6.233596,6,P-GPS,
9300,2021-10-16 19:01:47,29.4071977935776,-82.1690842760268,6.233596,6.1679792,58.992810614804,65.160789814804,0,0,1.68909782308,13,4,0,65.160789814804,6.233596,0.223694,1.94179468156,0,0,-0.447388,91.4, 0, -1.8,0,0,1024,1024,1080,1024,0,0,99,,,,,,,0,32,65.160789814804,6.233596,6,P-GPS,
9400,2021-10-16 19:01:47,29.4071978020764,-82.1690841774607,6.233596,6.1679792,58.992810614804,65.160789814804,0,0,1.67580714024,13,4,0,65.160789814804,6.233596,0.223694,1.94179468156,0,0,-0.223694,91.4, 0.1, -2,0,0,1024,1024,1106,1024,0,0,99,,,,,,,0,32,65.160789814804,6.233596,6,P-GPS,
9500,2021-10-16 19:01:47,29.407197806027,-82.1690841091306,6.56168,6.4960632,58.992810614804,65.488873814804,0,0,1.6675525468,13,4,0,65.488873814804,6.56168,0.223694,1.94179468156,0,0,-0.223694,91.3, 0.2, -2,0,0,1024,1024,1106,1024,0,0,99,,,,,,,0,32,65.488873814804,6.56168,6,P-GPS,
9600,2021-10-16 19:01:47,29.407197857253,-82.1690840876518,6.56168,6.4960632,58.992810614804,65.488873814804,0,0,1.64766737556,13,4,0,65.488873814804,6.56168,0.223694,1.94179468156,0,0,-0.447388,91.3, 0.5, -1.8,0,0,1024,1024,1133,1024,0,0,99,,,,,,,0,32,65.488873814804,6.56168,6,P-GPS,
9700,2021-10-16 19:01:47,29.4071979067854,-82.1690840851081,6.56168,6.4960632,58.992810614804,65.488873814804,0,0,1.63024611516,13,4,0,65.488873814804,6.56168,0.223694,1.94179468156,0,0,-0.223694,91.3, 0.6, -1.5,0,0,1024,1024,1134,1024,0,0,99,,,,,,,0,32,65.488873814804,6.56168,6,P-GPS,
9800,2021-10-16 19:01:47,29.4071979667723,-82.1690840683238,6.56168,6.4960632,58.992810614804,65.488873814804,0,0,1.60779532704,13,4,0,65.488873814804,6.56168,0.223694,1.94179468156,0,0,-0.447388,91.3, 0.6, -1.3,0,0,1024,1024,1148,1024,0,0,99,,,,,,,0,32,65.488873814804,6.56168,6,P-GPS,
9900,2021-10-16 19:01:47,29.407198003541,-82.1690840645075,6.889764,6.8241472,58.992810614804,65.816957814804,0,0,1.59468180956,13,4,0,65.816957814804,6.889764,0.223694,1.94179468156,0,0,-0.447388,91.3, 0.4, -1.4,0,0,1024,1024,1146,1024,0,0,99,,,,,,,0,32,65.816957814804,6.889764,6,P-GPS,
10000,2021-10-16 19:01:47,29.407198131097,-82.1690840501764,6.889764,6.8241472,58.992810614804,65.816957814804,0,0,1.549130627,13,4,0,65.816957814804,6.889764,0.223694,1.94179468156,0,0,-0.671082,91.4, 0.3, -1.6,0,0,1024,1024,1131,1024,0,0,99,,,,,,,0,32,65.816957814804,6.889764,6,P-GPS,
10100,2021-10-16 19:01:47,29.4071982204725,-82.169084053169,7.217848,7.1522312,58.992810614804,66.145041814804,0,0,1.51862209584,13,4,0,66.145041814804,7.217848,0.223694,1.94179468156,0,0,-0.671082,91.4, 0.1, -1.7,0,0,1024,1024,1135,1024,0,0,99,,,,,,,0,32,66.145041814804,7.217848,6,P-GPS,
10200,2021-10-16 19:01:48,29.4071982529551,-82.1690841039496,7.217848,7.1522312,58.992810614804,66.145041814804,0,0,1.51288718752,13,4,0,66.145041814804,7.217848,0.223694,1.94179468156,0,0,-0.671082,91.4, 0.2, -1.7,0,0,1024,1024,1114,1024,0,0,99,,,,,,,0,32,66.145041814804,7.217848,6,P-GPS,
10300,2021-10-16 19:01:48,29.4071982542253,-82.1690841538159,7.217848,7.1522312,58.992810614804,66.145041814804,0,0,1.51794952364,13,4,0,66.145041814804,7.217848,0.223694,1.94179468156,0,0,-0.671082,91.4, 0.3, -1.5,0,0,1024,1024,1114,1024,0,0,99,,,,,,,0,32,66.145041814804,7.217848,6,P-GPS,
10400,2021-10-16 19:01:48,29.407198255103,-82.1690842435974,7.545932,7.4803152,58.992810614804,66.473125814804,0,0,1.52791343472,13,4,0,66.473125814804,7.545932,0.223694,1.94179468156,0,0,-0.447388,91.4, 0.3, -1.6,0,0,1024,1024,1106,1024,0,0,99,,,,,,,0,32,66.473125814804,7.545932,6,P-GPS,
10500,2021-10-16 19:01:48,29.4071982516409,-82.1690843218281,7.545932,7.4803152,58.992810614804,66.473125814804,0,0,1.53839899936,13,4,0,66.473125814804,7.545932,0.223694,1.94179468156,0,0,-0.447388,91.4, 0.1, -1.6,0,0,1024,1024,1112,1024,0,0,99,,,,,,,0,32,66.473125814804,7.545932,6,P-GPS,
10600,2021-10-16 19:01:48,29.4071982668148,-82.1690844286954,7.545932,7.4803152,58.992810614804,66.473125814804,0,0,1.54660109936,13,4,0,66.473125814804,7.545932,0.223694,1.94179468156,0,0,-0.447388,91.4, 0, -1.6,0,0,1024,1024,1113,1024,0,0,99,,,,,,,0,32,66.473125814804,7.545932,6,P-GPS,
10700,2021-10-16 19:01:48,29.4071982687217,-82.1690845162129,7.874016,7.7755908,59.025619014804,66.801209814804,0,0,1.55734256952,13,4,0,66.801209814804,7.874016,0.223694,1.94179468156,0,0,-0.447388,91.4, 0, -1.6,0,0,1024,1024,1120,1024,0,0,99,,,,,,,0,32,66.801209814804,7.874016,6,P-GPS,
10800,2021-10-16 19:01:48,29.4071983461998,-82.1690846175577,7.874016,7.7755908,59.025619014804,66.801209814804,0,0,1.545603724,13,4,0,66.801209814804,7.874016,0.223694,1.94179468156,0,0,-0.447388,91.4, -0.2, -1.6,0,0,1024,1024,1127,1024,0,0,99,,,,,,,0,32,66.801209814804,7.874016,6,P-GPS,
10900,2021-10-16 19:01:48,29.4071983940256,-82.1690847081146,7.874016,7.7755908,59.025619014804,66.801209814804,0,0,1.54298233284,13,4,0,66.801209814804,7.874016,0.223694,1.94179468156,0,0,-0.447388,91.4, -0.4, -1.7,0,0,1024,1024,1132,1024,0,0,99,,,,,,,0,32,66.801209814804,7.874016,6,P-GPS,
11000,2021-10-16 19:01:48,29.4071984483407,-82.1690847504886,7.874016,7.7755908,59.025619014804,66.801209814804,0,0,1.5317257708,13,4,0,66.801209814804,7.874016,0.223694,1.94179468156,0,0,-0.447388,91.4, -0.4, -1.8,0,0,1024,1024,1159,1024,0,0,99,,,,,,,0,32,66.801209814804,7.874016,6,P-GPS,
11100,2021-10-16 19:01:48,29.4071984665499,-82.1690847910177,8.2021,8.1036748,59.025619014804,67.129293814804,0,0,1.53201776556,13,4,0,67.129293814804,8.2021,0.223694,1.94179468156,0,0,-0.447388,91.4, -0.3, -1.7,0,0,1024,1024,1169,1024,0,0,99,,,,,,,0,32,67.129293814804,8.2021,6,P-GPS,
11200,2021-10-16 19:01:48,29.4071985226971,-82.1690848527294,8.2021,8.1036748,59.025619014804,67.129293814804,0,0,1.52371395952,13,4,0,67.129293814804,8.2021,0.223694,1.94179468156,0,0,-0.671082,91.4, -0.3, -1.4,0,0,1024,1024,1148,1024,0,0,99,,,,,,,0,32,67.129293814804,8.2021,6,P-GPS,
11300,2021-10-16 19:01:49,29.4071985487359,-82.1690849182049,8.2021,8.1036748,59.025619014804,67.129293814804,0,0,1.52595477324,13,4,0,67.129293814804,8.2021,0.223694,1.94179468156,0,0,-0.671082,91.4, -0.2, -1.4,0,0,1024,1024,1154,1024,0,0,99,,,,,,,0,32,67.129293814804,8.2021,6,P-GPS,
11400,2021-10-16 19:01:49,29.4071985683977,-82.1690849703536,8.530184,8.4317588,59.025619014804,67.457377814804,0,0,1.52831697804,13,4,0,67.457377814804,8.530184,0.223694,1.94179468156,0,0,-0.671082,91.4, -0.1, -1.7,0,0,1024,1024,1182,1024,0,0,99,,,,,,,0,32,67.457377814804,8.530184,6,P-GPS,
11500,2021-10-16 19:01:49,29.4071985615289,-82.1690850236431,8.530184,8.4317588,59.025619014804,67.457377814804,0,0,1.53930123036,13,4,0,67.457377814804,8.530184,0.223694,1.94179468156,0,0,-0.671082,91.4, -0.2, -2.2,0,0,1024,1024,1191,1024,0,0,99,,,,,,,0,32,67.457377814804,8.530184,6,P-GPS,
11600,2021-10-16 19:01:49,29.4071985940083,-82.169085108523,8.858268,8.7598428,59.025619014804,67.785461814804,0,0,1.54369427512,13,4,0,67.785461814804,8.858268,0.223694,1.94179468156,0,0,-1.11847,91.4, -0.4, -2.5,0,0,1024,1024,1210,1024,0,0,99,,,,,,,0,32,67.785461814804,8.858268,6,P-GPS,
11700,2021-10-16 19:01:49,29.4071986186694,-82.1690851837922,9.186352,9.0879268,59.025619014804,68.113545814804,0,0,1.54930451152,13,4,0,68.113545814804,9.186352,0.223694,1.94179468156,0,0,-1.342164,91.4, -0.5, -2.5,0,0,1024,1024,1221,1024,0,0,99,,,,,,,0,32,68.113545814804,9.186352,6,P-GPS,
11800,2021-10-16 19:01:49,29.4071986624778,-82.1690852403559,9.186352,9.0879268,59.025619014804,68.113545814804,0,0,1.54618771352,13,4,0,68.113545814804,9.186352,0.223694,1.94179468156,0,0,-1.565858,91.4, -0.4, -2.2,0,0,1024,1024,1227,1024,0,0,99,,,,,,,0,32,68.113545814804,9.186352,6,P-GPS,
11900,2021-10-16 19:01:49,29.4071986940664,-82.169085280713,9.514436,9.4160108,59.025619014804,68.441629814804,0,0,1.54409125676,13,4,0,68.441629814804,9.514436,0.223694,1.94179468156,0,0,-1.565858,91.4, -0.3, -2,0,0,1024,1024,1216,1024,0,0,99,,,,,,,0,32,68.441629814804,9.514436,6,P-GPS,
12000,2021-10-16 19:01:49,29.4071987730247,-82.169085350881,9.84252,9.7440948,59.025619014804,68.769713814804,0,0,1.53384519344,13,4,0,68.769713814804,9.84252,0.223694,1.94179468156,0,0,-1.789552,91.4, -0.2, -1.8,0,0,1024,1024,1210,1024,0,0,99,,,,,,,0,32,68.769713814804,9.84252,6,P-GPS,
12100,2021-10-16 19:01:49,29.4071988326421,-82.1690854150645,10.170604,10.0721788,59.025619014804,69.097797814804,0,0,1.52881238488,13,4,0,69.097797814804,10.170604,0.223694,1.94179468156,0,0,-1.789552,91.4, -0.2, -1.8,0,0,1024,1024,1212,1024,0,0,99,,,,,,,0,32,69.097797814804,10.170604,6,P-GPS,
12200,2021-10-16 19:01:49,29.4071988856544,-82.1690855263699,10.498688,10.3674544,59.058427414804,69.425881814804,0,0,1.53563981292,13,4,0,69.425881814804,10.498688,0.223694,1.94179468156,0,0,-1.789552,91.4, -0.4, -2,0,0,1024,1024,1216,1024,0,0,99,,,,,,,0,32,69.425881814804,10.498688,6,P-GPS,
12300,2021-10-16 19:01:50,29.4071989219345,-82.1690856164271,10.826772,10.6955384,59.058427414804,69.753965814804,0,0,1.54375333024,13,4,0,69.753965814804,10.826772,0.223694,1.94179468156,0,0,-1.789552,91.4, -0.3, -2.1,0,0,1024,1024,1214,1024,0,0,99,,,,,,,0,32,69.753965814804,10.826772,6,P-GPS,
12400,2021-10-16 19:01:50,29.4071990115462,-82.1690857015811,10.826772,10.6955384,59.058427414804,69.753965814804,0,0,1.53688653212,13,4,0,69.753965814804,10.826772,0.223694,1.94179468156,0,0,-1.789552,91.4, -0.3, -1.8,0,0,1024,1024,1218,1024,0,0,98,,,,,,,0,32,69.753965814804,10.826772,6,P-GPS,
12500,2021-10-16 19:01:50,29.4071990901854,-82.1690857608976,11.154856,11.0236224,59.058427414804,70.082049814804,0,0,1.52845477332,13,4,0,70.082049814804,11.154856,0.223694,1.94179468156,0,0,-1.565858,91.3, -0.1, -1.3,0,0,1024,1024,1220,1024,0,0,98,,,,,,,0,32,70.082049814804,11.154856,6,P-GPS,
12600,2021-10-16 19:01:50,29.4071991837411,-82.1690858155158,11.48294,11.3517064,59.058427414804,70.410133814804,0,0,1.5158136968,13,4,0,70.410133814804,11.48294,0.223694,1.94179468156,0,0,-1.565858,91.4, 0, -1.1,0,0,1024,1024,1212,1024,0,0,98,,,,,,,0,32,70.410133814804,11.48294,6,P-GPS,
12700,2021-10-16 19:01:50,29.407199251258,-82.1690858711874,11.811024,11.6797904,59.058427414804,70.738217814804,0,0,1.51091868352,13,4,0,70.738217814804,11.811024,0.223694,1.94179468156,0,0,-1.565858,91.3, 0, -1.2,0,0,1024,1024,1190,1024,0,0,98,,,,,,,0,32,70.738217814804,11.811024,6,P-GPS,
12800,2021-10-16 19:01:50,29.407199320532,-82.1690859559734,11.811024,11.6797904,59.058427414804,70.738217814804,0,0,1.51293311928,13,4,0,70.738217814804,11.811024,0.223694,1.94179468156,0,0,-1.565858,91.4, -0.2, -1.4,0,0,1024,1024,1189,1024,0,0,98,,,,,,,0,32,70.738217814804,11.811024,6,P-GPS,
12900,2021-10-16 19:01:50,29.407199372328,-82.1690860377787,12.139108,12.0078744,59.058427414804,71.066301814804,0,0,1.51937996988,13,4,0,71.066301814804,12.139108,0.223694,1.94179468156,0,0,-1.565858,91.4, -0.5, -1.5,0,0,1024,1024,1196,1024,0,0,98,,,,,,,0,32,71.066301814804,12.139108,6,P-GPS,
13000,2021-10-16 19:01:50,29.4071993983212,-82.1690861590946,12.467192,12.3359584,59.058427414804,71.394385814804,0,0,1.54213915696,13,4,0,71.394385814804,12.467192,0.223694,1.94179468156,0,0,-1.342164,91.4, -0.6, -1.5,0,0,1024,1024,1217,1024,0,0,98,,,,,,,0,32,71.394385814804,12.467192,6,P-GPS,
13100,2021-10-16 19:01:50,29.4071994170108,-82.1690862524844,12.795276,12.6640424,59.058427414804,71.722469814804,0,0,1.56042655912,13,4,0,71.722469814804,12.795276,0.223694,1.94179468156,0,0,-1.342164,91.4, -0.5, -1.2,0,0,1024,1024,1225,1024,0,0,98,,,,,,,0,32,71.722469814804,12.795276,6,P-GPS,
13200,2021-10-16 19:01:50,29.4071993947565,-82.1690864071835,12.795276,12.6640424,59.058427414804,71.722469814804,0,0,1.60363850276,13,4,0,71.722469814804,12.795276,0.223694,1.94179468156,0,0,-1.342164,91.4, -0.5, -1.1,0,0,1024,1024,1243,1024,0,0,98,,,,,,,0,32,71.722469814804,12.795276,6,P-GPS,
13300,2021-10-16 19:01:51,29.4071993788271,-82.1690865232673,13.12336,12.9265096,59.124044214804,72.050553814804,0,0,1.6361385038,13,4,0,72.050553814804,13.12336,0.223694,1.94179468156,0,0,-1.565858,91.4, -0.5, -1.2,0,0,1024,1024,1258,1024,0,0,98,,,,,,,0,32,72.050553814804,13.12336,6,P-GPS,
13400,2021-10-16 19:01:51,29.4071993671772,-82.1690866293053,13.451444,13.2545936,59.124044214804,72.378637814804,0,0,1.66535766484,13,4,0,72.378637814804,13.451444,0.223694,1.94179468156,0,0,-1.565858,91.4, -0.6, -1.4,0,0,1024,1024,1225,1024,0,0,98,,,,,,,0,32,72.378637814804,13.451444,6,P-GPS,
13500,2021-10-16 19:01:51,29.4071993613799,-82.1690866998844,13.451444,13.2545936,59.124044214804,72.378637814804,0,0,1.68447511952,13,4,0,72.378637814804,13.451444,0.223694,1.94179468156,0,0,-2.013246,91.4, -0.6, -1.4,0,0,1024,1024,1212,1024,0,0,98,,,,,,,0,32,72.378637814804,13.451444,6,P-GPS,
13600,2021-10-16 19:01:51,29.4071993839225,-82.1690867928139,13.779528,13.5826776,59.124044214804,72.706721814804,0,0,1.70322512012,13,4,0,72.706721814804,13.779528,0.223694,1.94179468156,0,0,-1.789552,91.5, -0.8, -1.6,0,0,1024,1024,1191,1024,0,0,98,,,,,,,0,32,72.706721814804,13.779528,6,P-GPS,
13700,2021-10-16 19:01:51,29.4071994032684,-82.1690868692724,14.107612,13.9107616,59.124044214804,73.034805814804,0,0,1.71874021248,13,4,0,73.034805814804,14.107612,0.223694,1.94179468156,0,0,-1.789552,91.4, -0.8, -1.7,0,0,1024,1024,1189,1024,0,0,98,,,,,,,0,32,73.034805814804,14.107612,6,P-GPS,
13800,2021-10-16 19:01:51,29.4071994588423,-82.1690869693132,14.435696,14.2388456,59.124044214804,73.362889814804,0,0,1.73311029168,13,4,0,73.362889814804,14.435696,0.223694,1.94179468156,0,0,-1.565858,91.5, -0.7, -1.7,0,0,1024,1024,1207,1024,0,0,98,,,,,,,0,32,73.362889814804,14.435696,6,P-GPS,
13900,2021-10-16 19:01:51,29.407199502934,-82.1690870439834,14.76378,14.5669296,59.124044214804,73.690973814804,0,0,1.74376317916,13,4,0,73.690973814804,14.76378,0.223694,1.94179468156,0,0,-1.565858,91.4, -0.8, -1.5,0,0,1024,1024,1212,1024,0,0,98,,,,,,,0,32,73.690973814804,14.76378,6,P-GPS,
14000,2021-10-16 19:01:51,29.4071995498169,-82.1690871086244,15.091864,14.8950136,59.124044214804,74.019057814804,0,0,1.75158798256,13,4,0,74.019057814804,15.091864,0.223694,1.94179468156,0,0,-1.565858,91.4, -0.8, -1.2,0,0,1024,1024,1213,1024,0,0,98,,,,,,,0,32,74.019057814804,15.091864,6,P-GPS,
14100,2021-10-16 19:01:51,29.4071995728252,-82.1690871555833,15.091864,14.8950136,59.124044214804,74.019057814804,0,0,1.75965556812,13,4,0,74.019057814804,15.091864,0.223694,1.94179468156,0,0,-1.565858,91.4, -0.8, -1,0,0,1024,1024,1214,1024,0,0,98,,,,,,,0,32,74.019057814804,15.091864,6,P-GPS,
14200,2021-10-16 19:01:52,29.4071995777904,-82.1690872327832,15.419948,15.2230976,59.124044214804,74.347141814804,0,0,1.77949152676,13,4,0,74.347141814804,15.419948,0.223694,1.94179468156,0,0,-1.342164,91.4, -0.8, -0.9,0,0,1024,1024,1207,1024,0,0,98,,,,,,,0,32,74.347141814804,15.419948,6,P-GPS,
14300,2021-10-16 19:01:52,29.4071995736753,-82.1690872909359,15.748032,15.5511816,59.124044214804,74.675225814804,0,0,1.79600727532,13,4,0,74.675225814804,15.748032,0.223694,1.94179468156,0,0,-1.565858,91.4, -0.8, -1,0,0,1024,1024,1193,1024,0,0,98,,,,,,,0,32,74.675225814804,15.748032,6,P-GPS,
14400,2021-10-16 19:01:52,29.4071995520235,-82.1690873531699,15.748032,15.5511816,59.124044214804,74.675225814804,0,0,1.81700137048,13,4,0,74.675225814804,15.748032,0.223694,1.94179468156,0,0,-1.565858,91.4, -0.9, -1.3,0,0,1024,1024,1191,1024,0,0,98,,,,,,,0,32,74.675225814804,15.748032,6,P-GPS,
14500,2021-10-16 19:01:52,29.4071995263055,-82.1690873979297,16.076116,15.8792656,59.124044214804,75.003309814804,0,0,1.83403221092,13,4,0,75.003309814804,16.076116,0.223694,1.94179468156,0,0,-1.342164,91.4, -0.9, -1.4,0,0,1024,1024,1199,1024,0,0,98,,,,,,,0,32,75.003309814804,16.076116,6,P-GPS,
14600,2021-10-16 19:01:52,29.407199495308,-82.1690874516722,16.4042,16.2073496,59.124044214804,75.331393814804,0,0,1.85450793336,13,4,0,75.331393814804,16.4042,0.223694,1.94179468156,0,0,-1.342164,91.4, -0.8, -1.4,0,0,1024,1024,1203,1024,0,0,98,,,,,,,0,32,75.331393814804,16.4042,6,P-GPS,
14700,2021-10-16 19:01:52,29.4071994659912,-82.1690875007879,16.732284,16.5026252,59.156852614804,75.659477814804,0,0,1.87340557176,13,4,0,75.659477814804,16.732284,0.223694,1.94179468156,0,0,-1.342164,91.4, -0.8, -1.4,0,0,1024,1024,1203,1024,0,0,98,,,,,,,0,32,75.659477814804,16.732284,6,P-GPS,
14800,2021-10-16 19:01:52,29.4071994448328,-82.1690875789596,16.732284,16.5026252,59.156852614804,75.659477814804,0,0,1.89863523136,13,4,0,75.659477814804,16.732284,0.223694,1.94179468156,0,0,-1.342164,91.4, -1, -1.5,0,0,1024,1024,1204,1024,0,0,98,,,,,,,0,32,75.659477814804,16.732284,6,P-GPS,
14900,2021-10-16 19:01:52,29.4071994211324,-82.1690876717764,17.060368,16.8307092,59.156852614804,75.987561814804,0,0,1.9283465184,13,4,0,75.987561814804,17.060368,0.223694,1.94179468156,0,0,-1.342164,91.4, -1.4, -1.6,0,0,1024,1024,1206,1024,0,0,98,,,,,,,0,32,75.987561814804,17.060368,6,P-GPS,
15000,2021-10-16 19:01:52,29.4071993745019,-82.1690877993519,17.388452,17.1587932,59.156852614804,76.315645814804,0,0,1.97187014184,13,4,0,76.315645814804,17.388452,0.223694,1.97187014184,0,0,-1.565858,91.4, -1.9, -1.5,0,0,1024,1024,1207,1024,0,0,98,,,,,,,0,32,76.315645814804,17.388452,6,P-GPS,
15100,2021-10-16 19:01:52,29.4071993249109,-82.1690879458073,17.388452,17.1587932,59.156852614804,76.315645814804,0,0.223694,2.02112211192,13,4,0,76.315645814804,17.388452,0.223694,2.02112211192,0,-0.223694,-1.565858,91.4, -2.4, -1.4,0,0,1024,1024,1207,1024,0,0,98,,,,,,,0,32,76.315645814804,17.388452,6,P-GPS,
15200,2021-10-16 19:01:53,29.4071992898668,-82.1690881514266,17.716536,17.4868772,59.156852614804,76.643729814804,0,0.223694,2.08397972548,13,4,0,76.643729814804,17.716536,0.223694,2.08397972548,0,-0.223694,-1.565858,91.4, -2.8, -1.3,0,0,1024,1024,1208,1024,0,0,98,,,,,,,0,32,76.643729814804,17.716536,6,P-GPS,
15300,2021-10-16 19:01:53,29.4071992477194,-82.1690883838686,18.04462,17.8149612,59.156852614804,76.971813814804,0,0.223694,2.15576450468,13,4,0,76.971813814804,18.04462,0.223694,2.15576450468,0,-0.223694,-1.565858,91.4, -3.5, -1.4,0,0,1024,1024,1219,1024,0,0,98,,,,,,,0,32,76.971813814804,18.04462,6,P-GPS,
15400,2021-10-16 19:01:53,29.4071991837574,-82.1690886674441,18.372704,18.1102368,59.189661014804,77.299897814804,0,0.447388,2.2458662136,13,4,0,77.299897814804,18.372704,0.447388,2.2458662136,0,-0.447388,-1.565858,91.5, -4.3, -1.7,0,0,1024,1024,1219,1024,0,0,98,,,,,,,0,32,77.299897814804,18.372704,6,P-GPS,
15500,2021-10-16 19:01:53,29.4071991157226,-82.1690889768199,18.372704,18.1102368,59.189661014804,77.299897814804,0,0.447388,2.34413393328,13,4,0,77.299897814804,18.372704,0.447388,2.34413393328,0,-0.447388,-1.565858,91.5, -5.2, -2,0,0,1024,1024,1211,1024,0,0,98,,,,,,,0,32,77.299897814804,18.372704,6,P-GPS,
15600,2021-10-16 19:01:53,29.4071990446329,-82.1690893748812,18.700788,18.4383208,59.189661014804,77.627981814804,0,0.447388,2.46818249368,13,4,0,77.627981814804,18.700788,0.447388,2.46818249368,0,-0.447388,-1.565858,91.5, -6, -2.2,0,0,1024,1024,1189,1024,0,0,98,,,,,,,0,32,77.627981814804,18.700788,6,P-GPS,
15700,2021-10-16 19:01:53,29.4071989832894,-82.1690897815104,19.028872,18.7335964,59.222469414804,77.956065814804,0,0.671082,2.59358276016,13,4,0,77.956065814804,19.028872,0.671082,2.59358276016,0,-0.671082,-1.565858,91.6, -6.8, -2.3,0,0,1024,1024,1189,1024,0,0,98,,,,,,,0,32,77.956065814804,19.028872,6,P-GPS,
15800,2021-10-16 19:01:53,29.4071989296045,-82.1690902762068,19.356956,19.0616804,59.222469414804,78.284149814804,0,0.671082,2.7435860458,13,4,0,78.284149814804,19.356956,0.671082,2.7435860458,0,-0.671082,-1.565858,91.6, -7.7, -2.3,0,0,1024,1024,1166,1024,0,0,98,,,,,,,0,32,78.284149814804,19.356956,6,P-GPS,
15900,2021-10-16 19:01:53,29.4071988806812,-82.1690907596176,19.356956,19.028872,59.255277814804,78.284149814804,0,0.671082,2.89050534184,13,4,0,78.284149814804,19.356956,0.671082,2.89050534184,0,-0.671082,-1.565858,91.6, -8.5, -2.3,0,0,1024,1024,1118,1024,0,0,98,,,,,,,0,32,78.284149814804,19.356956,6,P-GPS,
16000,2021-10-16 19:01:53,29.4071988398203,-82.1690912827698,19.68504,19.356956,59.255277814804,78.612233814804,0,0.671082,3.0486221448,12,4,0,78.612233814804,19.68504,0.671082,3.0486221448,0,-0.671082,-1.342164,91.7, -9, -2.1,0,0,1024,1024,1072,1024,0,0,98,,,,,,,0,32,78.612233814804,19.68504,6,P-GPS,
16100,2021-10-16 19:01:53,29.4071988012652,-82.1690917712065,20.013124,19.6522316,59.288086214804,78.940317814804,0,0.671082,3.19710968236,12,4,0,78.940317814804,20.013124,0.671082,3.19710968236,0,-0.671082,-1.11847,91.7, -9.3, -2.1,0,0,1024,1024,1032,1024,0,0,98,,,,,,,0,32,78.940317814804,20.013124,6,P-GPS,
16200,2021-10-16 19:01:53,29.4071987959614,-82.1690923209862,20.013124,19.6522316,59.288086214804,78.940317814804,0,0.671082,3.3599738608,12,4,0,78.940317814804,20.013124,0.671082,3.3599738608,0,-0.671082,-0.671082,91.7, -9.7, -2.3,0,0,1024,1024,1027,1024,0,0,98,,,,,,,0,32,78.940317814804,20.013124,6,P-GPS,
16300,2021-10-16 19:01:54,29.407198785072,-82.1690928068974,20.013124,19.6194232,59.320894614804,78.940317814804,0,0.671082,3.5056431568,12,4,0,78.940317814804,20.013124,0.671082,3.5056431568,0,-0.671082,-0.223694,91.7, -9.6, -2.2,0,0,1024,1024,1024,1024,0,0,98,,,,,,,0,32,78.940317814804,20.013124,6,P-GPS,
16400,2021-10-16 19:01:54,29.407198782118,-82.1690932402971,20.013124,19.6194232,59.320894614804,78.940317814804,0,0.447388,3.6353675704,12,4,0,78.940317814804,20.013124,0.671082,3.6353675704,0,-0.447388,0,91.7, -9.4, -2.3,0,0,1024,1024,1024,1024,0,0,98,,,,,,,0,32,78.940317814804,20.013124,6,P-GPS,
16700,2021-10-16 19:01:54,29.4071987083055,-82.1690937700215,20.013124,19.5866148,59.353703014804,78.940317814804,0,0,3.8030513028,13,4,0,78.940317814804,20.013124,0.671082,3.8030513028,0,0,0,91.5, -6.5, -2.2,0,0,1024,1024,1024,1024,0,0,98,,,,,,,0,32,78.940317814804,20.013124,6,P-GPS,
16800,2021-10-16 19:01:54,29.4071986705614,-82.1690936588504,20.013124,19.5866148,59.353703014804,78.940317814804,0,0,3.7743111444,13,4,0,78.940317814804,20.013124,0.671082,3.8030513028,0,0,0,91.5, -5.5, -2.1,0,0,1021,1024,1024,1024,0,0,98,,,,,,,0,32,78.940317814804,20.013124,6,P-GPS,
16900,2021-10-16 19:01:54,29.4071986393637,-82.1690935331403,20.013124,19.5866148,59.353703014804,78.940317814804,0,0,3.7405841092,13,4,0,78.940317814804,20.013124,0.671082,3.8030513028,0,0,0,91.5, -4.8, -2,0,0,964,1024,1024,1024,0,0,98,,,,,,,0,32,78.940317814804,20.013124,6,P-GPS,
17000,2021-10-16 19:01:54,29.4071986229799,-82.1690933395118,20.013124,19.6194232,59.320894614804,78.940317814804,0,0,3.6849082544,13,4,0,78.940317814804,20.013124,0.671082,3.8030513028,0,0,0,91.5, -4.5, -2.1,0,0,931,1024,1024,1024,0,0,98,,,,,,,0,32,78.940317814804,20.013124,6,P-GPS,
17100,2021-10-16 19:01:54,29.4071986122761,-82.1690931930272,20.013124,19.6194232,59.320894614804,78.940317814804,0,0,3.642716652,13,4,0,78.940317814804,20.013124,0.671082,3.8030513028,0,0,0,91.5, -4, -2.1,0,0,877,1024,1024,1024,0,0,98,,,,,,,0,32,78.940317814804,20.013124,6,P-GPS,
17200,2021-10-16 19:01:55,29.4071986182818,-82.1690930338333,20.013124,19.6194232,59.320894614804,78.940317814804,0,0,3.594652346,13,4,0,78.940317814804,20.013124,0.671082,3.8030513028,0,0,0,91.4, -2.1, -1.6,0,0,917,1024,1024,1024,0,0,98,,,,,,,0,32,78.940317814804,20.013124,6,P-GPS,
17300,2021-10-16 19:01:55,29.4071986152888,-82.1690929480667,20.013124,19.6194232,59.320894614804,78.940317814804,0,0,3.5696195368,13,4,0,78.940317814804,20.013124,0.671082,3.8030513028,0,0,0,91.4, -0.8, -1.1,0,0,911,1024,1024,1024,0,0,98,,,,,,,0,32,78.940317814804,20.013124,6,P-GPS,
17400,2021-10-16 19:01:55,29.4071986169579,-82.1690930094104,20.341208,19.9475072,59.320894614804,79.268401814804,0,0.223694,3.5875657316,13,4,0,79.268401814804,20.341208,0.671082,3.8030513028,0,-0.223694,0,91.4, 0.1, -0.9,0,0,919,1024,1055,1024,0,0,98,,,,,,,0,32,79.268401814804,20.341208,6,P-GPS,
17600,2021-10-16 19:01:55,29.4071985695279,-82.1690935555669,20.341208,19.9146988,59.353703014804,79.268401814804,0,0.447388,3.756069674,13,4,0,79.268401814804,20.341208,0.671082,3.8030513028,0,-0.447388,0,91.4, 0.3, -1.3,0,0,927,1024,1087,1024,0,0,98,,,,,,,0,32,79.268401814804,20.341208,6,P-GPS,
17700,2021-10-16 19:01:55,29.4071985244151,-82.1690939417631,20.341208,19.9146988,59.353703014804,79.268401814804,0,0.447388,3.8770014364,13,4,0,79.268401814804,20.341208,0.671082,3.8770014364,0,-0.671082,0,91.4, 0.2, -1.6,0,0,921,1024,1096,1024,0,0,98,,,,,,,0,32,79.268401814804,20.341208,6,P-GPS,
17800,2021-10-16 19:01:55,29.4071984658644,-82.1690945218379,20.341208,19.8818904,59.386511414804,79.268401814804,0,0.671082,4.0578085288,13,4,0,79.268401814804,20.341208,0.671082,4.0578085288,0,-0.671082,0,91.4, 0.3, -1.8,0,0,909,1024,1108,1024,0,0,98,,,,,,,0,32,79.268401814804,20.341208,6,P-GPS,
17900,2021-10-16 19:01:55,29.407198404231,-82.1690950442623,20.341208,19.8818904,59.386511414804,79.268401814804,0,0.894776,4.2220801876,13,4,0,79.268401814804,20.341208,0.894776,4.2220801876,0,-0.894776,-0.223694,91.3, 0.2, -1.7,0,0,910,1024,1110,1024,0,0,98,,,,,,,0,32,79.268401814804,20.341208,6,P-GPS,
18000,2021-10-16 19:01:55,29.4071983104213,-82.1690956350772,20.341208,19.849082,59.419319814804,79.268401814804,0,0.894776,4.410925338,13,4,0,79.268401814804,20.341208,0.894776,4.410925338,0,-0.894776,-0.223694,91.3, 0.3, -1.6,0,0,902,1024,1107,1024,0,0,98,,,,,,,0,32,79.268401814804,20.341208,6,P-GPS,
18100,2021-10-16 19:01:55,29.4071982191453,-82.169096159973,20.669292,20.177166,59.419319814804,79.596485814804,0,0.894776,4.5797573644,13,4,0,79.596485814804,20.669292,0.894776,4.5797573644,0,-0.894776,-0.223694,91.4, 0.4, -1.7,0,0,879,1024,1141,1024,0,0,98,,,,,,,0,32,79.596485814804,20.669292,6,P-GPS,
18200,2021-10-16 19:01:55,29.4071981238634,-82.1690967607621,20.669292,20.1115492,59.484936614804,79.596485814804,0,0.894776,4.7720473968,13,4,0,79.596485814804,20.669292,0.894776,4.7720473968,0,-0.894776,-0.223694,91.4, 0.5, -1.8,0,0,887,1024,1147,1024,0,0,98,,,,,,,0,32,79.596485814804,20.669292,6,P-GPS,
18300,2021-10-16 19:01:56,29.4071980453773,-82.169097311985,20.669292,20.1115492,59.484936614804,79.596485814804,0,0.9171454,4.9476379536,13,4,0,79.596485814804,20.669292,0.9171454,4.9476379536,-0.223694,-0.894776,-0.447388,91.3, 0.9, -1.9,0,0,893,1024,1136,1024,0,0,98,,,,,,,0,32,79.596485814804,20.669292,6,P-GPS,
18400,2021-10-16 19:01:56,29.4071979401717,-82.1690979059209,20.669292,20.0787408,59.517745014804,79.596485814804,0,0.9171454,5.1392062012,13,4,0,79.596485814804,20.669292,0.9171454,5.1392062012,-0.223694,-0.894776,-0.671082,91.3, 1.3, -1.9,0,0,882,1024,1141,1024,0,0,98,,,,,,,0,32,79.596485814804,20.669292,6,P-GPS,
18600,2021-10-16 19:01:56,29.4071977303141,-82.1690990476452,20.997376,20.3740164,59.550553414804,79.924569814804,0,1.11847,5.50853036,13,4,0,79.924569814804,20.997376,1.11847,5.50853036,0,-1.11847,-0.671082,91.4, 1.7, -1.7,0,0,896,1024,1145,1024,0,0,98,,,,,,,0,32,79.924569814804,20.997376,6,P-GPS,
18700,2021-10-16 19:01:56,29.4071976242927,-82.1690996343421,21.32546,20.669292,59.583361814804,80.252653814804,0,1.11847,5.698162912,13,4,0,80.252653814804,21.32546,1.11847,5.698162912,0,-1.11847,-0.671082,91.4, 1.9, -1.7,0,0,910,1024,1145,1024,0,0,98,,,,,,,0,32,80.252653814804,21.32546,6,P-GPS,
18800,2021-10-16 19:01:56,29.4071975333489,-82.169100235999,21.32546,20.669292,59.583361814804,80.252653814804,0,1.11847,5.8908466452,13,4,0,80.252653814804,21.32546,1.11847,5.8908466452,0,-1.11847,-0.671082,91.4, 1.5, -1.8,0,0,903,1024,1142,1024,0,0,98,,,,,,,0,32,80.252653814804,21.32546,6,P-GPS,
18900,2021-10-16 19:01:56,29.407197455379,-82.1691008761403,21.32546,20.6364836,59.616170214804,80.252653814804,0,1.342164,6.0940290664,13,4,0,80.252653814804,21.32546,1.342164,6.0940290664,0,-1.342164,-0.671082,91.4, 1.2, -2,0,0,903,1024,1142,1024,0,0,98,,,,,,,0,32,80.252653814804,21.32546,6,P-GPS,
19000,2021-10-16 19:01:56,29.4071973739894,-82.1691016294484,21.653544,20.9317592,59.648978614804,80.580737814804,0,1.342164,6.3322836672,13,4,0,80.580737814804,21.653544,1.342164,6.3322836672,0,-1.342164,-0.671082,91.4, 1, -1.9,0,0,911,1024,1145,1024,0,0,98,,,,,,,0,32,80.580737814804,21.653544,6,P-GPS,
19100,2021-10-16 19:01:56,29.407197298612,-82.1691024051389,21.653544,20.9317592,59.648978614804,80.580737814804,0,1.342164,6.5770015228,13,4,0,80.580737814804,21.653544,1.342164,6.5770015228,0,-1.342164,-0.671082,91.4, 0.9, -1.8,0,0,915,1024,1147,1024,0,0,98,,,,,,,0,32,80.580737814804,21.653544,6,P-GPS,
19200,2021-10-16 19:01:57,29.4071972449955,-82.1691032469228,21.981628,21.2270348,59.681787014804,80.908821814804,0,1.342164,6.8401576992,13,4,0,80.908821814804,21.981628,1.342164,6.8401576992,0,-1.342164,-0.671082,91.4, 0.7, -1.9,0,0,907,1024,1157,1024,0,0,98,,,,,,,0,32,80.908821814804,21.981628,6,P-GPS,
19300,2021-10-16 19:01:57,29.4071971901951,-82.1691040641671,21.981628,21.1942264,59.714595414804,80.908821814804,0,1.342164,7.0962600696,13,4,0,80.908821814804,21.981628,1.342164,7.0962600696,0,-1.565858,-0.671082,91.4, 0.6, -2,0,0,924,1024,1160,1024,0,0,98,,,,,,,0,32,80.908821814804,21.981628,6,P-GPS,
19400,2021-10-16 19:01:57,29.4071970890019,-82.1691049446617,21.981628,21.161418,59.747403814804,80.908821814804,0,1.565858,7.3763781888,13,4,0,80.908821814804,21.981628,1.565858,7.3763781888,0,-1.565858,-0.671082,91.3, 0.6, -1.9,0,0,925,1024,1159,1024,0,0,97,,,,,,,0,32,80.908821814804,21.981628,6,P-GPS,
19500,2021-10-16 19:01:57,29.4071970029371,-82.1691057197424,22.309712,21.4566936,59.780212214804,81.236905814804,0,1.565858,7.6228020812,13,4,0,81.236905814804,22.309712,1.565858,7.6228020812,0,-1.565858,-0.894776,91.4, 0.5, -1.7,0,0,912,1024,1159,1024,0,0,97,,,,,,,0,32,81.236905814804,22.309712,6,P-GPS,
19600,2021-10-16 19:01:57,29.4071968846453,-82.1691065876358,22.309712,21.3910768,59.845829014804,81.236905814804,0,1.565858,7.9008532712,13,4,0,81.236905814804,22.309712,1.565858,7.9008532712,0,-1.565858,-0.894776,91.4, 0.3, -1.7,0,0,909,1024,1157,1024,0,0,97,,,,,,,0,32,81.236905814804,22.309712,6,P-GPS,
19700,2021-10-16 19:01:57,29.4071967917572,-82.1691074358046,22.637796,21.7191608,59.845829014804,81.564989814804,0,1.565858,8.1706367444,13,4,0,81.564989814804,22.637796,1.565858,8.1706367444,0,-1.565858,-0.894776,91.4, 0.3, -2,0,0,907,1024,1155,1024,0,0,97,,,,,,,0,32,81.564989814804,22.637796,6,P-GPS,
19800,2021-10-16 19:01:57,29.40719667987,-82.1691083037742,22.637796,21.6863524,59.878637414804,81.564989814804,0,1.565858,8.4482942336,13,4,0,81.564989814804,22.637796,1.565858,8.4482942336,0,-1.565858,-0.894776,91.4, 0.3, -2,0,0,907,1024,1157,1024,0,0,97,,,,,,,0,32,81.564989814804,22.637796,6,P-GPS,
19900,2021-10-16 19:01:57,29.4071965913153,-82.1691091433406,22.637796,21.653544,59.911445814804,81.564989814804,0,1.565858,8.7152889928,13,4,0,81.564989814804,22.637796,1.565858,8.7152889928,0,-1.565858,-0.894776,91.4, 0.5, -1.8,0,0,899,1024,1156,1024,0,0,97,,,,,,,0,32,81.564989814804,22.637796,6,P-GPS,
20000,2021-10-16 19:01:57,29.4071964486229,-82.1691100158216,22.96588,21.9488196,59.944254214804,81.893073814804,0,1.565858,8.9971131488,13,4,0,81.893073814804,22.96588,1.565858,8.9971131488,0,-1.565858,-0.894776,91.4, 0.5, -1.7,0,0,892,1024,1160,1024,0,0,97,,,,,,,0,32,81.893073814804,22.96588,6,P-GPS,
20100,2021-10-16 19:01:57,29.4071963280545,-82.1691108712233,22.96588,21.9160112,59.977062614804,81.893073814804,0,1.565858,9.271817882,13,4,0,81.893073814804,22.96588,1.565858,9.271817882,0,-1.565858,-0.894776,91.4, 0.6, -1.9,0,0,881,1024,1165,1024,0,0,97,,,,,,,0,32,81.893073814804,22.96588,6,P-GPS,
20200,2021-10-16 19:01:57,29.4071962124789,-82.1691117926116,23.293964,22.2112868,60.009871014804,82.221157814804,0,1.565858,9.5665685476,13,4,0,82.221157814804,23.293964,1.565858,9.5665685476,0,-1.565858,-0.894776,91.4, 0.7, -2,0,0,880,1024,1162,1024,0,0,97,,,,,,,0,32,82.221157814804,23.293964,6,P-GPS,
20300,2021-10-16 19:01:58,29.4071961320338,-82.1691126897393,23.293964,22.1784784,60.042679414804,82.221157814804,0,1.565858,9.8510173756,13,4,0,82.221157814804,23.293964,1.565858,9.8510173756,0,-1.565858,-0.894776,91.3, 1.1, -1.8,0,0,886,1024,1164,1024,0,0,97,,,,,,,0,32,82.221157814804,23.293964,6,P-GPS,
20400,2021-10-16 19:01:58,29.4071959979575,-82.1691136983877,23.622048,22.473754,60.075487814804,82.549241814804,0,1.789552,10.1744753912,13,4,0,82.549241814804,23.622048,1.789552,10.1744753912,0,-1.789552,-0.894776,91.4, 1.3, -1.8,0,0,887,1024,1172,1024,0,0,97,,,,,,,0,32,82.549241814804,23.622048,6,P-GPS,
20500,2021-10-16 19:01:58,29.4071958788987,-82.1691147204179,23.950132,22.7690296,60.108296214804,82.877325814804,0,1.789552,10.5009517796,13,4,0,82.877325814804,23.950132,1.789552,10.5009517796,0,-1.789552,-1.11847,91.4, 1.3, -2.2,0,0,902,1024,1174,1024,0,0,97,,,,,,,0,32,82.877325814804,23.950132,6,P-GPS,
20700,2021-10-16 19:01:58,29.4071955962806,-82.1691168240333,23.950132,22.6706044,60.206721414804,82.877325814804,0,2.013246,11.1760502264,13,4,0,82.877325814804,23.950132,2.013246,11.1760502264,0,-2.013246,-1.11847,91.4, 1, -1.8,0,0,884,1024,1173,1024,0,0,97,,,,,,,0,32,82.877325814804,23.950132,6,P-GPS,
20800,2021-10-16 19:01:58,29.407195497947,-82.1691179485443,24.278216,22.96588,60.239529814804,83.205409814804,0,2.013246,11.5329400016,13,4,0,83.205409814804,24.278216,2.013246,11.5329400016,0,-2.013246,-0.894776,91.4, 0.8, -1.8,0,0,879,1027,1176,1024,0,0,97,,,,,,,0,32,83.205409814804,24.278216,6,P-GPS,
20900,2021-10-16 19:01:58,29.4071954267319,-82.1691190047528,24.278216,22.9330716,60.272338214804,83.205409814804,0,2.013246,11.8666998548,13,4,0,83.205409814804,24.278216,2.013246,11.8666998548,0,-2.013246,-1.11847,91.4, 0.8, -2,0,0,881,1027,1177,1024,0,0,97,,,,,,,0,32,83.205409814804,24.278216,6,P-GPS,
21000,2021-10-16 19:01:58,29.4071953725389,-82.1691202032553,24.6063,23.2283472,60.305146614804,83.533493814804,0,2.013246,12.2436355624,13,4,0,83.533493814804,24.6063,2.013246,12.2436355624,0,-2.013246,-1.11847,91.4, 0.9, -2,0,0,881,1027,1177,1024,0,0,97,,,,,,,0,32,83.533493814804,24.6063,6,P-GPS,
21100,2021-10-16 19:01:58,29.4071953178379,-82.1691213187264,24.6063,23.1955388,60.337955014804,83.533493814804,0,2.013246,12.594980718,13,4,0,83.533493814804,24.6063,2.013246,12.594980718,0,-2.013246,-1.11847,91.3, 1, -1.8,0,0,888,1032,1170,1024,0,0,97,,,,,,,0,32,83.533493814804,24.6063,6,P-GPS,
